[
    { "lat": -35.282, "lng": 149.128, "city": "Canberra" },
    { "lat": -33.8688, "lng": 151.2093, "city": "Sydney" },
    { "lat": -37.8136, "lng": 144.9631, "city": "Melbourne" },
    { "lat": -27.4698, "lng": 153.0251, "city": "Brisbane" },
    { "lat": -31.9505, "lng": 115.8605, "city": "Perth" },
    { "lat": -12.4634, "lng": 130.8456, "city": "Darwin" },
    { "lat": -38.1499, "lng": 144.3617, "city": "Geelong" },
    { "lat": -36.7570, "lng": 144.2794, "city": "Bendigo" },
    { "lat": -34.4278, "lng": 150.8931, "city": "Wollongong" },
    { "lat": -33.3333, "lng": 151.0808, "city": "Gosford" },
    { "lat": -35.3533, "lng": 149.2341, "city": "Queanbeyan" },
    { "lat": -36.1270, "lng": 146.8881, "city": "Albury" },
    { "lat": -35.5313, "lng": 138.7761, "city": "Victor Harbor" },
    { "lat": -33.3784, "lng": 149.232, "city": "Bathurst" },
    { "lat": -37.5612, "lng": 143.8634, "city": "Ballarat" },
    { "lat": -41.4388, "lng": 147.1347, "city": "Launceston" },
    { "lat": -36.8485, "lng": 174.7633, "city": "Auckland" }
  ]
  